{"type":"FeatureCollection","features":[{"type":"Feature","geometry":{"type":"Point","coordinates":[153.0086975,-27.5551796]},"properties":{"id":1,"url":"https://api.qldtraffic.qld.gov.au/v1/webcams/1","description":"Archerfield - Ipswich Mwy - North","direction":"NorthEast","district":"Metropolitan","locality":"Archerfield","postcode":"4108","image_url":"https://webcams.qldtraffic.qld.gov.au/Metropolitan/Archerfield_Ipswich_Mwy_sth.jpg"}},{"type":"Feature","geometry":{"type":"Point","coordinates":[153.4118042,-28.0112896]},"properties":{"id":3,"url":"https://api.qldtraffic.qld.gov.au/v1/webcams/3","description":"Bundall - Bundall Rd & Ashmore Rd - South","direction":"South","district":"South Coast","locality":"Bundall","postcode":"4217","image_url":"https://webcams.qldtraffic.qld.gov.au/Gold_Coast/bundall-ashmore-south.jpg"}},{"type":"Feature","geometry":{"type":"Point","coordinates":[152.9476013,-27.10539055]},"properties":{"id":4,"url":"https://api.qldtraffic.qld.gov.au/v1/webcams/4","description":"Morayfield - Morayfield Rd & Caboolture River Rd Intersection - North","direction":"NorthEast","district":"North Coast","locality":"Morayfield","postcode":"4506","image_url":"https://webcams.qldtraffic.qld.gov.au/Sunshine_Coast/caboolture_river.jpg"}},{"type":"Feature","geometry":{"type":"Point","coordinates":[151.9763031,-27.56567955]},"properties":{"id":5,"url":"https://api.qldtraffic.qld.gov.au/v1/webcams/5","description":"Toowoomba - Down the Range - East","direction":"East","district":"Darling Downs","locality":"Toowoomba City","postcode":"4350","image_url":"https://webcams.qldtraffic.qld.gov.au/Darling_Downs/toowoomba_range-east.jpg"}},{"type":"Feature","geometry":{"type":"Point","coordinates":[152.9627075,-27.50071907]},"properties":{"id":6,"url":"https://api.qldtraffic.qld.gov.au/v1/webcams/6","description":"Indooroopilly - Western Fwy & Moggill Rd - South","direction":"South","district":"Metropolitan","locality":"Indooroopilly","postcode":"4068","image_url":"https://webcams.qldtraffic.qld.gov.au/Metropolitan/Indooroopilly_Western_Fwy_Sth.jpg"}},{"type":"Feature","geometry":{"type":"Point","coordinates":[153.0207977,-27.47009087]},"properties":{"id":7,"url":"https://api.qldtraffic.qld.gov.au/v1/webcams/7","description":"Brisbane City - Riverside Expressway - South","direction":"SouthEast","district":"Metropolitan","locality":"Brisbane City","postcode":"4000","image_url":"https://webcams.qldtraffic.qld.gov.au/Metropolitan/mecure.jpg"}},{"type":"Feature","geometry":{"type":"Point","coordinates":[152.6669006,-26.19936943]},"properties":{"id":8,"url":"https://api.qldtraffic.qld.gov.au/v1/webcams/8","description":"Gympie - Bruce Hwy & Exelsior Rd - North","direction":"NorthWest","district":"Wide Bay/Burnett","locality":"Gympie","postcode":"4570","image_url":"https://webcams.qldtraffic.qld.gov.au/Wide_Bay/bruce_hwy-excelsior.jpg"}},{"type":"Feature","geometry":{"type":"Point","coordinates":[148.786499,-26.57383919]},"properties":{"id":9,"url":"https://api.qldtraffic.qld.gov.au/v1/webcams/9","description":"Roma - Carnarvon Hwy - South","direction":"SouthWest","district":"South West","locality":"Roma","postcode":"4455","image_url":"https://webcams.qldtraffic.qld.gov.au/South_West/carnarvon-south.jpg"}},{"type":"Feature","geometry":{"type":"Point","coordinates":[145.7554016,-16.89653015]},"properties":{"id":10,"url":"https://api.qldtraffic.qld.gov.au/v1/webcams/10","description":"Cairns North - Captain Cook Hwy & Airport Ave - South","direction":"SouthEast","district":"Far North","locality":"Cairns North","postcode":"4870","image_url":"https://webcams.qldtraffic.qld.gov.au/Far_North/captain_cook-airport-south.jpg"}},{"type":"Feature","geometry":{"type":"Point","coordinates":[147.3975983,-19.64281082]},"properties":{"id":11,"url":"https://api.qldtraffic.qld.gov.au/v1/webcams/11","description":"Burdekin -  Bruce Hwy & Burdekin Bridge - North","direction":"NorthWest","district":"Northern","locality":"Home Hill","postcode":"4806","image_url":"https://webcams.qldtraffic.qld.gov.au/Northern/bruce-burdekin-bridge-north.jpg"}},{"type":"Feature","geometry":{"type":"Point","coordinates":[148.7869415,-26.57304192]},"properties":{"id":12,"url":"https://api.qldtraffic.qld.gov.au/v1/webcams/12","description":"Roma - Carnarvon Hwy - North","direction":"NorthEast","district":"South West","locality":"Roma","postcode":"4455","image_url":"https://webcams.qldtraffic.qld.gov.au/South_West/carnarvon-north.jpg"}},{"type":"Feature","geometry":{"type":"Point","coordinates":[151.9756012,-27.56650925]},"properties":{"id":13,"url":"https://api.qldtraffic.qld.gov.au/v1/webcams/13","description":"Toowoomba - Looking South to Cohoe St","direction":"South","district":"Darling Downs","locality":"Toowoomba City","postcode":"4350","image_url":"https://webcams.qldtraffic.qld.gov.au/Darling_Downs/toowoomba_range-cohoe-south.jpg"}},{"type":"Feature","geometry":{"type":"Point","coordinates":[152.0048065,-27.56195068]},"properties":{"id":14,"url":"https://api.qldtraffic.qld.gov.au/v1/webcams/14","description":"Toowoomba - Bottom of Range looking East","direction":"NorthEast","district":"Darling Downs","locality":"Toowoomba City","postcode":"4350","image_url":"https://webcams.qldtraffic.qld.gov.au/Darling_Downs/toowoomba-range-bottom-helidon.jpg"}},{"type":"Feature","geometry":{"type":"Point","coordinates":[151.9951019,-27.56817055]},"properties":{"id":16,"url":"https://api.qldtraffic.qld.gov.au/v1/webcams/16","description":"Toowoomba - Range Saddle looking East","direction":"NorthEast","district":"Darling Downs","locality":"Toowoomba City","postcode":"4350","image_url":"https://webcams.qldtraffic.qld.gov.au/Darling_Downs/toowoomba-saddle-east.jpg"}},{"type":"Feature","geometry":{"type":"Point","coordinates":[151.9929962,-27.5690403]},"properties":{"id":17,"url":"https://api.qldtraffic.qld.gov.au/v1/webcams/17","description":"Toowoomba - Range Saddle looking West","direction":"SouthWest","district":"Darling Downs","locality":"Toowoomba City","postcode":"4350","image_url":"https://webcams.qldtraffic.qld.gov.au/Darling_Downs/toowoomba-saddle-west.jpg"}},{"type":"Feature","geometry":{"type":"Point","coordinates":[145.6963959,-16.84539986]},"properties":{"id":18,"url":"https://api.qldtraffic.qld.gov.au/v1/webcams/18","description":"Caravonica - Caravonica Roundabout - South","direction":"South","district":"Far North","locality":"Caravonica","postcode":"4878","image_url":"https://webcams.qldtraffic.qld.gov.au/Far_North/captain_cook-carivonica-south.jpg"}},{"type":"Feature","geometry":{"type":"Point","coordinates":[145.747406,-16.95384979]},"properties":{"id":19,"url":"https://api.qldtraffic.qld.gov.au/v1/webcams/19","description":"Woree - Ray Jones Drv & Rigg St - South","direction":"South","district":"Far North","locality":"Woree","postcode":"4868","image_url":"https://webcams.qldtraffic.qld.gov.au/Far_North/MRPENINSULA-615.jpg"}},{"type":"Feature","geometry":{"type":"Point","coordinates":[153.4279938,-27.98711014]},"properties":{"id":21,"url":"https://api.qldtraffic.qld.gov.au/v1/webcams/21","description":"Main Beach - Gold Coast Hwy - Inlet - South","direction":"SouthEast","district":"South Coast","locality":"Main Beach","postcode":"4217","image_url":"https://webcams.qldtraffic.qld.gov.au/Gold_Coast/gch_theinlet.jpg"}},{"type":"Feature","geometry":{"type":"Point","coordinates":[153.4356995,-28.04861069]},"properties":{"id":23,"url":"https://api.qldtraffic.qld.gov.au/v1/webcams/23","description":"Mermaid Waters - Gold Coast Hwy & Markeri St - North","direction":"NorthWest","district":"South Coast","locality":"Miami","postcode":"4220","image_url":"https://webcams.qldtraffic.qld.gov.au/Gold_Coast/markeri-GC_Hwy-north.jpg"}},{"type":"Feature","geometry":{"type":"Point","coordinates":[153.3863983,-28.03236008]},"properties":{"id":24,"url":"https://api.qldtraffic.qld.gov.au/v1/webcams/24","description":"Carrara - Goodings Drv & Nerang-Broadbeach Rd - East","direction":"East","district":"South Coast","locality":"Carrara","postcode":"4211","image_url":"https://webcams.qldtraffic.qld.gov.au/Gold_Coast/nerang-gooding-east.jpg"}},{"type":"Feature","geometry":{"type":"Point","coordinates":[153.3486023,-28.0156002]},"properties":{"id":25,"url":"https://api.qldtraffic.qld.gov.au/v1/webcams/25","description":"Carrara - Pacific Mwy & Neilsens Rd - Exit 73 - South","direction":"SouthEast","district":"South Coast","locality":"Carrara","postcode":"4211","image_url":"https://webcams.qldtraffic.qld.gov.au/Gold_Coast/nielsens_pacific-south.jpg"}},{"type":"Feature","geometry":{"type":"Point","coordinates":[153.3952942,-27.96170044]},"properties":{"id":27,"url":"https://api.qldtraffic.qld.gov.au/v1/webcams/27","description":"Southport - Smith St & Kumbari St - East","direction":"SouthEast","district":"South Coast","locality":"Southport","postcode":"4215","image_url":"https://webcams.qldtraffic.qld.gov.au/Gold_Coast/smith-kumbari-east.jpg"}},{"type":"Feature","geometry":{"type":"Point","coordinates":[152.841507,-27.59568977]},"properties":{"id":29,"url":"https://api.qldtraffic.qld.gov.au/v1/webcams/29","description":"Dinmore - Ipswich Mwy & Warrego Hwy - West","direction":"West","district":"Metropolitan","locality":"Dinmore","postcode":"4303","image_url":"https://webcams.qldtraffic.qld.gov.au/Metropolitan/Dinmore_Ipswich_Mwy_east.jpg"}},{"type":"Feature","geometry":{"type":"Point","coordinates":[153.0379028,-27.6603508]},"properties":{"id":30,"url":"https://api.qldtraffic.qld.gov.au/v1/webcams/30","description":"Browns Plains - Mt Lindesay Hwy & Johnston Rd - North","direction":"NorthEast","district":"South Coast","locality":"Browns Plains","postcode":"4118","image_url":"https://webcams.qldtraffic.qld.gov.au/Gold_Coast/EllenGrove_MtLindHwy_Nth.jpg"}},{"type":"Feature","geometry":{"type":"Point","coordinates":[153.1072998,-27.45529938]},"properties":{"id":31,"url":"https://api.qldtraffic.qld.gov.au/v1/webcams/31","description":"Gateway Bridge - North","direction":"NorthWest","district":"Metropolitan","locality":"Nudgee","postcode":"4014","image_url":"https://webcams.qldtraffic.qld.gov.au/Metropolitan/gateway.jpg"}},{"type":"Feature","geometry":{"type":"Point","coordinates":[152.8865967,-27.60157967]},"properties":{"id":32,"url":"https://api.qldtraffic.qld.gov.au/v1/webcams/32","description":"Goodna - Ipswich Mwy & Railway Tce - East","direction":"SouthEast","district":"Metropolitan","locality":"Dinmore","postcode":"4303","image_url":"https://webcams.qldtraffic.qld.gov.au/Metropolitan/Goodna_Ipswich_Mwy_East.jpg"}},{"type":"Feature","geometry":{"type":"Point","coordinates":[153.1719055,-27.6634407]},"properties":{"id":33,"url":"https://api.qldtraffic.qld.gov.au/v1/webcams/33","description":"Loganholme - Grandis St & Pacific Mwy - North","direction":"NorthWest","district":"South Coast","locality":"Loganholme","postcode":"4129","image_url":"https://webcams.qldtraffic.qld.gov.au/Gold_Coast/GrandisNth.jpg"}},{"type":"Feature","geometry":{"type":"Point","coordinates":[153.1741028,-27.66555023]},"properties":{"id":34,"url":"https://api.qldtraffic.qld.gov.au/v1/webcams/34","description":"Loganholme - Grandis St & Pacific Mwy - South","direction":"SouthEast","district":"South Coast","locality":"Loganholme","postcode":"4129","image_url":"https://webcams.qldtraffic.qld.gov.au/Gold_Coast/GrandisSth.jpg"}},{"type":"Feature","geometry":{"type":"Point","coordinates":[153.0337067,-27.41150093]},"properties":{"id":35,"url":"https://api.qldtraffic.qld.gov.au/v1/webcams/35","description":"Kedron - Gympie Rd & Leckie Rd - South","direction":"South","district":"Metropolitan","locality":"Kedron","postcode":"4031","image_url":"https://webcams.qldtraffic.qld.gov.au/Metropolitan/Gympie_Stafford_Rd_Sth.jpg"}},{"type":"Feature","geometry":{"type":"Point","coordinates":[153.0782013,-27.41225052]},"properties":{"id":36,"url":"https://api.qldtraffic.qld.gov.au/v1/webcams/36","description":"Hendra - Airport Drv - East","direction":"SouthEast","district":"Metropolitan","locality":"Hendra","postcode":"4011","image_url":"https://webcams.qldtraffic.qld.gov.au/Metropolitan/Hendra_East_West_Art_Nth.jpg"}},{"type":"Feature","geometry":{"type":"Point","coordinates":[153.0863037,-27.4343605]},"properties":{"id":37,"url":"https://api.qldtraffic.qld.gov.au/v1/webcams/37","description":"Whinstanes - Gateway Mwy & Links Ave - East","direction":"East","district":"Metropolitan","locality":"Eagle Farm","postcode":"4009","image_url":"https://webcams.qldtraffic.qld.gov.au/Metropolitan/Whinstanes_Gateway_Mwy_Nth.jpg"}},{"type":"Feature","geometry":{"type":"Point","coordinates":[152.9848022,-27.4782505]},"properties":{"id":38,"url":"https://api.qldtraffic.qld.gov.au/v1/webcams/38","description":"Toowong - Mt Coot-tha & Miskin St - West","direction":"West","district":"Metropolitan","locality":"Toowong","postcode":"4066","image_url":"https://webcams.qldtraffic.qld.gov.au/Metropolitan/Toowong_MtCootha_West.jpg"}},{"type":"Feature","geometry":{"type":"Point","coordinates":[153.0670013,-27.55006027]},"properties":{"id":39,"url":"https://api.qldtraffic.qld.gov.au/v1/webcams/39","description":"Upper Mount Gravatt - Pacific Mwy & Klumpp Rd - North","direction":"NorthWest","district":"Metropolitan","locality":"Upper Mount Gravatt","postcode":"4122","image_url":"https://webcams.qldtraffic.qld.gov.au/Metropolitan/Upper_MtGravatt_Pac_Mwy_Nth.jpg"}},{"type":"Feature","geometry":{"type":"Point","coordinates":[153.0603027,-27.4056797]},"properties":{"id":40,"url":"https://api.qldtraffic.qld.gov.au/v1/webcams/40","description":"Nundah - Sandgate Rd - South","direction":"SouthWest","district":"Metropolitan","locality":"Nundah","postcode":"4012","image_url":"https://webcams.qldtraffic.qld.gov.au/Metropolitan/Nundah_Sandgate_Rd_Sth.jpg"}},{"type":"Feature","geometry":{"type":"Point","coordinates":[153.1058044,-27.57772064]},"properties":{"id":41,"url":"https://api.qldtraffic.qld.gov.au/v1/webcams/41","description":"Rochedale - Gateway Mwy & Miles Platting Rd - South","direction":"South","district":"Metropolitan","locality":"Rochedale","postcode":"4123","image_url":"https://webcams.qldtraffic.qld.gov.au/Metropolitan/rochedale_gateway_mwy_sth.jpg"}},{"type":"Feature","geometry":{"type":"Point","coordinates":[153.1033936,-27.58130074]},"properties":{"id":42,"url":"https://api.qldtraffic.qld.gov.au/v1/webcams/42","description":"Rochedale - Pacific Mwy & Gateway Mwy Overpass - South","direction":"SouthEast","district":"Metropolitan","locality":"Rochedale","postcode":"4123","image_url":"https://webcams.qldtraffic.qld.gov.au/Metropolitan/Rochedale_Pac_Mwy_Sth.jpg"}},{"type":"Feature","geometry":{"type":"Point","coordinates":[152.3838043,-24.85199928]},"properties":{"id":43,"url":"https://api.qldtraffic.qld.gov.au/v1/webcams/43","description":"Kalkie - Bargara Rd & Gahans Rd - West","direction":"SouthWest","district":"Wide Bay/Burnett","locality":"Kalkie","postcode":"4670","image_url":"https://webcams.qldtraffic.qld.gov.au/Wide_Bay/bargara-gahans-west.jpg"}},{"type":"Feature","geometry":{"type":"Point","coordinates":[152.8370972,-25.28796959]},"properties":{"id":44,"url":"https://api.qldtraffic.qld.gov.au/v1/webcams/44","description":"Urraween - Boat Harbour Drv Pedestrian Crossing - West","direction":"NorthWest","district":"Wide Bay/Burnett","locality":"Urraween","postcode":"4655","image_url":"https://webcams.qldtraffic.qld.gov.au/Wide_Bay/boat_harbour_ped_west.jpg"}},{"type":"Feature","geometry":{"type":"Point","coordinates":[152.2789001,-25.23628998]},"properties":{"id":45,"url":"https://api.qldtraffic.qld.gov.au/v1/webcams/45","description":"Childers - Churchill St Pedestrian Crossing - NorthWest","direction":"SouthWest","district":"Wide Bay/Burnett","locality":"Childers","postcode":"4660","image_url":"https://webcams.qldtraffic.qld.gov.au/Wide_Bay/childers-ped-nthwest.jpg"}},{"type":"Feature","geometry":{"type":"Point","coordinates":[152.6943054,-25.53688049]},"properties":{"id":46,"url":"https://api.qldtraffic.qld.gov.au/v1/webcams/46","description":"Maryborough - Ferry St & Alice St - SouthWest","direction":"SouthEast","district":"Wide Bay/Burnett","locality":"Maryborough","postcode":"4650","image_url":"https://webcams.qldtraffic.qld.gov.au/Wide_Bay/ferry-alice-cam1-sthwest.jpg"}},{"type":"Feature","geometry":{"type":"Point","coordinates":[152.694397,-25.53693008]},"properties":{"id":47,"url":"https://api.qldtraffic.qld.gov.au/v1/webcams/47","description":"Maryborough - Ferry St & Alice St - SouthEast","direction":"NorthWest","district":"Wide Bay/Burnett","locality":"Maryborough","postcode":"4650","image_url":"https://webcams.qldtraffic.qld.gov.au/Wide_Bay/ferry-alice-cam2-stheast.jpg"}},{"type":"Feature","geometry":{"type":"Point","coordinates":[152.3399048,-24.85095024]},"properties":{"id":48,"url":"https://api.qldtraffic.qld.gov.au/v1/webcams/48","description":"Bundaberg North - Gin Gin Rd School Pedestrian Crossing - East","direction":"SouthEast","district":"Wide Bay/Burnett","locality":"Bundaberg North","postcode":"4670","image_url":"https://webcams.qldtraffic.qld.gov.au/Wide_Bay/north-school-ped-east.jpg"}},{"type":"Feature","geometry":{"type":"Point","coordinates":[152.3497009,-24.86451912]},"properties":{"id":49,"url":"https://api.qldtraffic.qld.gov.au/v1/webcams/49","description":"Bundaberg Central - Quay St Pedestrian Crossing - West","direction":"SouthWest","district":"Wide Bay/Burnett","locality":"Bundaberg Central","postcode":"4670","image_url":"https://webcams.qldtraffic.qld.gov.au/Wide_Bay/quay-ped-west.jpg"}},{"type":"Feature","geometry":{"type":"Point","coordinates":[152.3582001,-24.88898087]},"properties":{"id":50,"url":"https://api.qldtraffic.qld.gov.au/v1/webcams/50","description":"Walkervale - Sims Rd & Barolin St - South","direction":"SouthEast","district":"Wide Bay/Burnett","locality":"Walkervale","postcode":"4670","image_url":"https://webcams.qldtraffic.qld.gov.au/Wide_Bay/sims-barolin-south.jpg"}},{"type":"Feature","geometry":{"type":"Point","coordinates":[152.3209991,-24.88792992]},"properties":{"id":51,"url":"https://api.qldtraffic.qld.gov.au/v1/webcams/51","description":"Svensson Heights - Takalvan St & Heidke St - NorthEast","direction":"NorthEast","district":"Wide Bay/Burnett","locality":"Svensson Heights","postcode":"4670","image_url":"https://webcams.qldtraffic.qld.gov.au/Wide_Bay/takalvan-heike-ntheast.jpg"}},{"type":"Feature","geometry":{"type":"Point","coordinates":[152.3298035,-24.87731934]},"properties":{"id":52,"url":"https://api.qldtraffic.qld.gov.au/v1/webcams/52","description":"Svensson Heights - Takalvan St & Walker St - SouthWest","direction":"SouthWest","district":"Wide Bay/Burnett","locality":"Svensson Heights","postcode":"4670","image_url":"https://webcams.qldtraffic.qld.gov.au/Wide_Bay/takalvan-walker-ntheast.jpg"}},{"type":"Feature","geometry":{"type":"Point","coordinates":[153.0966949,-26.65875053]},"properties":{"id":53,"url":"https://api.qldtraffic.qld.gov.au/v1/webcams/53","description":"Maroochydore - Aerodrome Rd adjacent to Caltex Service Station - North","direction":"NorthWest","district":"North Coast","locality":"Maroochydore","postcode":"4558","image_url":"https://webcams.qldtraffic.qld.gov.au/Sunshine_Coast/aerodrome.jpg"}},{"type":"Feature","geometry":{"type":"Point","coordinates":[153.1049957,-26.66206932]},"properties":{"id":54,"url":"https://api.qldtraffic.qld.gov.au/v1/webcams/54","description":"Alexandra Headland - Alexandra Pde & Parker St","direction":"SouthEast","district":"North Coast","locality":"Alexandra Headland","postcode":"4572","image_url":"https://webcams.qldtraffic.qld.gov.au/Sunshine_Coast/alex_pde_south.jpg"}},{"type":"Feature","geometry":{"type":"Point","coordinates":[152.9915924,-27.21248055]},"properties":{"id":55,"url":"https://api.qldtraffic.qld.gov.au/v1/webcams/55","description":"Narangba - Bruce Hwy & Boundary Rd Interchange - South","direction":"SouthEast","district":"North Coast","locality":"Narangba","postcode":"4504","image_url":"https://webcams.qldtraffic.qld.gov.au/Sunshine_Coast/Bndry-Rd-Nrngba-sth.jpg"}},{"type":"Feature","geometry":{"type":"Point","coordinates":[152.975296,-27.08554077]},"properties":{"id":56,"url":"https://api.qldtraffic.qld.gov.au/v1/webcams/56","description":"Caboolture - Bruce Hwy & Caboolture-Bribie Island Interchange","direction":"South","district":"North Coast","locality":"Caboolture","postcode":"4510","image_url":"https://webcams.qldtraffic.qld.gov.au/Sunshine_Coast/bribie.jpg"}},{"type":"Feature","geometry":{"type":"Point","coordinates":[152.9779968,-27.13911057]},"properties":{"id":57,"url":"https://api.qldtraffic.qld.gov.au/v1/webcams/57","description":"Burpengary - Bruce Hwy & Uhlmann Rd Interchange - North","direction":"North","district":"North Coast","locality":"Burpengary","postcode":"4505","image_url":"https://webcams.qldtraffic.qld.gov.au/Sunshine_Coast/bruce-uhlmann-north.jpg"}},{"type":"Feature","geometry":{"type":"Point","coordinates":[152.9774017,-27.15313911]},"properties":{"id":58,"url":"https://api.qldtraffic.qld.gov.au/v1/webcams/58","description":"Burpengary - Bruce Hwy & Station Rd Interchange - North","direction":"North","district":"North Coast","locality":"Burpengary","postcode":"4505","image_url":"https://webcams.qldtraffic.qld.gov.au/Sunshine_Coast/bruce_hwy_burpengary.jpg"}},{"type":"Feature","geometry":{"type":"Point","coordinates":[152.9855957,-27.17737007]},"properties":{"id":59,"url":"https://api.qldtraffic.qld.gov.au/v1/webcams/59","description":"Deception Bay - Bruce Hwy & Deception Bay Rd Interchange - North","direction":"NorthWest","district":"North Coast","locality":"Deception Bay","postcode":"4508","image_url":"https://webcams.qldtraffic.qld.gov.au/Sunshine_Coast/bruce_hwy_d_bay.jpg"}},{"type":"Feature","geometry":{"type":"Point","coordinates":[153.1213989,-26.80397034]},"properties":{"id":60,"url":"https://api.qldtraffic.qld.gov.au/v1/webcams/60","description":"Caloundra - Caloundra Rd & Fourth Ave Intersection - East","direction":"SouthEast","district":"North Coast","locality":"Caloundra","postcode":"4551","image_url":"https://webcams.qldtraffic.qld.gov.au/Sunshine_Coast/caloundra-fourth-east.jpg"}},{"type":"Feature","geometry":{"type":"Point","coordinates":[153.0428925,-26.77279091]},"properties":{"id":61,"url":"https://api.qldtraffic.qld.gov.au/v1/webcams/61","description":"Caloundra - Bruce Hwy & Caloundra Rd Interchange - South","direction":"South","district":"North Coast","locality":"Caloundra","postcode":"4551","image_url":"https://webcams.qldtraffic.qld.gov.au/Sunshine_Coast/caloundra_opass.jpg"}},{"type":"Feature","geometry":{"type":"Point","coordinates":[153.0838928,-26.78193092]},"properties":{"id":62,"url":"https://api.qldtraffic.qld.gov.au/v1/webcams/62","description":"Caloundra - Caloundra Rd & Pierce Ave Intersection - West","direction":"NorthWest","district":"North Coast","locality":"Caloundra","postcode":"4551","image_url":"https://webcams.qldtraffic.qld.gov.au/Sunshine_Coast/caloundra_rd_west.jpg"}},{"type":"Feature","geometry":{"type":"Point","coordinates":[152.9597015,-26.62841988]},"properties":{"id":63,"url":"https://api.qldtraffic.qld.gov.au/v1/webcams/63","description":"Nambour - Currie St & Maud St - North","direction":"NorthWest","district":"North Coast","locality":"Nambour","postcode":"4560","image_url":"https://webcams.qldtraffic.qld.gov.au/Sunshine_Coast/currie_st_north.jpg"}},{"type":"Feature","geometry":{"type":"Point","coordinates":[153.0711975,-26.62015915]},"properties":{"id":64,"url":"https://api.qldtraffic.qld.gov.au/v1/webcams/64","description":"Pacific Paradise - Sunshine Mwy & David Low Way Interchange - South","direction":"SouthWest","district":"North Coast","locality":"Pacific Paradise","postcode":"4564","image_url":"https://webcams.qldtraffic.qld.gov.au/Sunshine_Coast/dlow-way-sth.jpg"}},{"type":"Feature","geometry":{"type":"Point","coordinates":[153.0921936,-26.65626907]},"properties":{"id":65,"url":"https://api.qldtraffic.qld.gov.au/v1/webcams/65","description":"Maroochydore - Horton Parade & Plaza Pde Intersection - East","direction":"SouthEast","district":"North Coast","locality":"Maroochydore","postcode":"4558","image_url":"https://webcams.qldtraffic.qld.gov.au/Sunshine_Coast/horton-first-east.jpg"}},{"type":"Feature","geometry":{"type":"Point","coordinates":[153.0691986,-26.65850067]},"properties":{"id":66,"url":"https://api.qldtraffic.qld.gov.au/v1/webcams/66","description":"Maroochydore - Maroochydore Rd & Hume St Intersection - West","direction":"SouthWest","district":"North Coast","locality":"Maroochydore","postcode":"4558","image_url":"https://webcams.qldtraffic.qld.gov.au/Sunshine_Coast/maroochydore-hume.jpg"}},{"type":"Feature","geometry":{"type":"Point","coordinates":[153.1240997,-26.77345085]},"properties":{"id":67,"url":"https://api.qldtraffic.qld.gov.au/v1/webcams/67","description":"Currimundi - Nicklin Way & Buderim St Intersection - North","direction":"NorthWest","district":"North Coast","locality":"Currimundi","postcode":"4551","image_url":"https://webcams.qldtraffic.qld.gov.au/Sunshine_Coast/MRNCHD-925.jpg"}},{"type":"Feature","geometry":{"type":"Point","coordinates":[153.1298981,-26.70498085]},"properties":{"id":68,"url":"https://api.qldtraffic.qld.gov.au/v1/webcams/68","description":"Buddina - Nicklin Way & Lutana St Intersection - South","direction":"SouthEast","district":"North Coast","locality":"Buddina","postcode":"4575","image_url":"https://webcams.qldtraffic.qld.gov.au/Sunshine_Coast/nicklin-lutana-south.jpg"}},{"type":"Feature","geometry":{"type":"Point","coordinates":[153.1295013,-26.73076057]},"properties":{"id":69,"url":"https://api.qldtraffic.qld.gov.au/v1/webcams/69","description":"Bokarina - Nicklin Way & Main Drv Intersection - North","direction":"North","district":"North Coast","locality":"Bokarina","postcode":"4575","image_url":"https://webcams.qldtraffic.qld.gov.au/Sunshine_Coast/nicklin-main-north.jpg"}},{"type":"Feature","geometry":{"type":"Point","coordinates":[153.125,-26.75905037]},"properties":{"id":70,"url":"https://api.qldtraffic.qld.gov.au/v1/webcams/70","description":"Wurtulla - Nicklin Way & Piringa St Intersection - South","direction":"SouthWest","district":"North Coast","locality":"Wurtulla","postcode":"4575","image_url":"https://webcams.qldtraffic.qld.gov.au/Sunshine_Coast/nicklin-piringa-south.jpg"}},{"type":"Feature","geometry":{"type":"Point","coordinates":[153.1174927,-26.69845009]},"properties":{"id":71,"url":"https://api.qldtraffic.qld.gov.au/v1/webcams/71","description":"Minyama - Nicklin Way & Jessica Blvd - South","direction":"SouthEast","district":"North Coast","locality":"Minyama","postcode":"4575","image_url":"https://webcams.qldtraffic.qld.gov.au/Sunshine_Coast/nicklin_way_minyama.jpg"}},{"type":"Feature","geometry":{"type":"Point","coordinates":[153.0180969,-27.24814987]},"properties":{"id":73,"url":"https://api.qldtraffic.qld.gov.au/v1/webcams/73","description":"Mango Hill - Bruce Hwy & Anzac Ave Interchange - South","direction":"South","district":"North Coast","locality":"Mango Hill","postcode":"4509","image_url":"https://webcams.qldtraffic.qld.gov.au/Metropolitan/murrumbadowns_bruce_hwy_sth.jpg"}},{"type":"Feature","geometry":{"type":"Point","coordinates":[153.0796967,-27.26284981]},"properties":{"id":74,"url":"https://api.qldtraffic.qld.gov.au/v1/webcams/74","description":"Clontarf - Houghton Hwy - South","direction":"SouthWest","district":"North Coast","locality":"Clontarf","postcode":"4019","image_url":"https://webcams.qldtraffic.qld.gov.au/Metropolitan/Redcliffe_Houghton_Hwy_Sth.jpg"}},{"type":"Feature","geometry":{"type":"Point","coordinates":[153.408905,-28.03528023]},"properties":{"id":75,"url":"https://api.qldtraffic.qld.gov.au/v1/webcams/75","description":"Broadbeach Waters - Nerang-Broadbeach Rd & Bermuda St - North","direction":"NorthEast","district":"South Coast","locality":"Nerang","postcode":"4211","image_url":"https://webcams.qldtraffic.qld.gov.au/Gold_Coast/nerang-bermuda-north.jpg"}},{"type":"Feature","geometry":{"type":"Point","coordinates":[153.4918976,-28.14211082]},"properties":{"id":76,"url":"https://api.qldtraffic.qld.gov.au/v1/webcams/76","description":"Tugun - Gold Coast Hwy & Wyberba St - South","direction":"SouthEast","district":"South Coast","locality":"Tugun","postcode":"4224","image_url":"https://webcams.qldtraffic.qld.gov.au/Gold_Coast/pacific_mwy-tugun-south.jpg"}},{"type":"Feature","geometry":{"type":"Point","coordinates":[152.455307,-24.81918907]},"properties":{"id":77,"url":"https://api.qldtraffic.qld.gov.au/v1/webcams/77","description":"Bargara  - Bargara Rd & Davidson St - East","direction":"East","district":"Wide Bay/Burnett","locality":"Bargara","postcode":"4670","image_url":"https://webcams.qldtraffic.qld.gov.au/Wide_Bay/bargara-davidson-east.jpg"}},{"type":"Feature","geometry":{"type":"Point","coordinates":[153.1069946,-27.45505905]},"properties":{"id":78,"url":"https://api.qldtraffic.qld.gov.au/v1/webcams/78","description":"Murarrie - Gateway Mwy & Lytton Rd - South","direction":"South","district":"Metropolitan","locality":"Murarrie","postcode":"4172","image_url":"https://webcams.qldtraffic.qld.gov.au/Metropolitan/MRMETRO-1465.jpg"}},{"type":"Feature","geometry":{"type":"Point","coordinates":[152.9633331,-27.50268173]},"properties":{"id":79,"url":"https://api.qldtraffic.qld.gov.au/v1/webcams/79","description":"Indooroopilly - Western Fwy & Moggill Rd - West","direction":"West","district":"Metropolitan","locality":"Indooroopilly","postcode":"4068","image_url":"https://webcams.qldtraffic.qld.gov.au/Metropolitan/MRMETRO-1464.jpg"}},{"type":"Feature","geometry":{"type":"Point","coordinates":[153.0661926,-27.56100082]},"properties":{"id":80,"url":"https://api.qldtraffic.qld.gov.au/v1/webcams/80","description":"Macgregor - Mains Rd & Kessels Rd - East","direction":"East","district":"Metropolitan","locality":"Macgregor","postcode":"4109","image_url":"https://webcams.qldtraffic.qld.gov.au/Metropolitan/MRMETRO-1463.jpg"}},{"type":"Feature","geometry":{"type":"Point","coordinates":[153.011795,-27.3453598]},"properties":{"id":81,"url":"https://api.qldtraffic.qld.gov.au/v1/webcams/81","description":"Carseldine - Gympie Rd & Beams Rd - North","direction":"North","district":"Metropolitan","locality":"Carseldine","postcode":"4034","image_url":"https://webcams.qldtraffic.qld.gov.au/Metropolitan/MRMETRO-1462.jpg"}},{"type":"Feature","geometry":{"type":"Point","coordinates":[153.0166016,-27.30195045]},"properties":{"id":82,"url":"https://api.qldtraffic.qld.gov.au/v1/webcams/82","description":"Bald Hills - Gateway Mwy & Bruce Hwy - North","direction":"North","district":"Metropolitan","locality":"Bald Hills","postcode":"4036","image_url":"https://webcams.qldtraffic.qld.gov.au/Metropolitan/MRMETRO-1461.jpg"}},{"type":"Feature","geometry":{"type":"Point","coordinates":[153.1157074,-27.54516029]},"properties":{"id":83,"url":"https://api.qldtraffic.qld.gov.au/v1/webcams/83","description":"Wishart - Mt Gravatt Capalaba Rd before Gateway Mwy - East","direction":"East","district":"Metropolitan","locality":"Wishart","postcode":"4122","image_url":"https://webcams.qldtraffic.qld.gov.au/Metropolitan/105223_Metropolitan-Wishart-Mt-Gravatt-Capalaba-Rd.jpg"}},{"type":"Feature","geometry":{"type":"Point","coordinates":[153.1138306,-27.45189857]},"properties":{"id":84,"url":"https://api.qldtraffic.qld.gov.au/v1/webcams/84","description":"Murarrie - Port of Brisbane - West","direction":"West","district":"Metropolitan","locality":"Murarrie","postcode":"4172","image_url":"https://webcams.qldtraffic.qld.gov.au/Metropolitan/MRMETRO-1459.jpg"}},{"type":"Feature","geometry":{"type":"Point","coordinates":[153.0186005,-27.55821037]},"properties":{"id":85,"url":"https://api.qldtraffic.qld.gov.au/v1/webcams/85","description":"Archerfield - Beaudesert Rd & Granard Rd - East","direction":"East","district":"Metropolitan","locality":"Archerfield","postcode":"4108","image_url":"https://webcams.qldtraffic.qld.gov.au/Metropolitan/MRMETRO-1458.jpg"}},{"type":"Feature","geometry":{"type":"Point","coordinates":[153.0605927,-27.35300064]},"properties":{"id":86,"url":"https://api.qldtraffic.qld.gov.au/v1/webcams/86","description":"Boondall - Sandgate Rd & Beams Rd - South","direction":"South","district":"Metropolitan","locality":"Boondall","postcode":"4034","image_url":"https://webcams.qldtraffic.qld.gov.au/Metropolitan/MRMETRO-1457.jpg"}},{"type":"Feature","geometry":{"type":"Point","coordinates":[152.9904938,-27.42270088]},"properties":{"id":87,"url":"https://api.qldtraffic.qld.gov.au/v1/webcams/87","description":"Enoggera - Samford Rd & Wardell St - West","direction":"West","district":"Metropolitan","locality":"Enoggera","postcode":"4051","image_url":"https://webcams.qldtraffic.qld.gov.au/Metropolitan/MRMETRO-1456.jpg"}},{"type":"Feature","geometry":{"type":"Point","coordinates":[153.5167999,-28.16448021]},"properties":{"id":88,"url":"https://api.qldtraffic.qld.gov.au/v1/webcams/88","description":"Bilinga - Gold Coast Hwy & Terminal Drv - North","direction":"NorthWest","district":"South Coast","locality":"Bilinga","postcode":"4225","image_url":"https://webcams.qldtraffic.qld.gov.au/Gold_Coast/MRSCHD-312.jpg"}},{"type":"Feature","geometry":{"type":"Point","coordinates":[153.195694,-27.69803047]},"properties":{"id":89,"url":"https://api.qldtraffic.qld.gov.au/v1/webcams/89","description":"Beenleigh - Pacific Mwy M1 - Logan River Bridge","direction":"North","district":"South Coast","locality":"Beenleigh","postcode":"4207","image_url":"https://webcams.qldtraffic.qld.gov.au/Gold_Coast/MRSCHD-311.jpg"}},{"type":"Feature","geometry":{"type":"Point","coordinates":[153.4792023,-28.14599037]},"properties":{"id":90,"url":"https://api.qldtraffic.qld.gov.au/v1/webcams/90","description":"Currumbin Waters - Pacific Mwy M1 & Tugun Bypass - South","direction":"South","district":"South Coast","locality":"Currumbin Waters","postcode":"4223","image_url":"https://webcams.qldtraffic.qld.gov.au/Gold_Coast/MRSCHD-310.jpg"}},{"type":"Feature","geometry":{"type":"Point","coordinates":[153.341507,-27.98316956]},"properties":{"id":91,"url":"https://api.qldtraffic.qld.gov.au/v1/webcams/91","description":"Nerang - Pacific Mwy M1 - Exit 69 - South","direction":"South","district":"South Coast","locality":"Nerang","postcode":"4211","image_url":"https://webcams.qldtraffic.qld.gov.au/Gold_Coast/MRSCHD-309.jpg"}},{"type":"Feature","geometry":{"type":"Point","coordinates":[153.4255981,-28.08580017]},"properties":{"id":92,"url":"https://api.qldtraffic.qld.gov.au/v1/webcams/92","description":"Burleigh Waters - Bermuda St & Christine Ave - North","direction":"North","district":"South Coast","locality":"Burleigh Waters","postcode":"4220","image_url":"https://webcams.qldtraffic.qld.gov.au/Gold_Coast/MRSCHD-308.jpg"}},{"type":"Feature","geometry":{"type":"Point","coordinates":[153.237793,-27.7549305]},"properties":{"id":93,"url":"https://api.qldtraffic.qld.gov.au/v1/webcams/93","description":"Yatala South - Pacific Mwy M1 - Exit 41 - South","direction":"SouthEast","district":"South Coast","locality":"Yatala","postcode":"4207","image_url":"https://webcams.qldtraffic.qld.gov.au/Gold_Coast/MRSCHD-307.jpg"}},{"type":"Feature","geometry":{"type":"Point","coordinates":[153.3404999,-27.99416924]},"properties":{"id":94,"url":"https://api.qldtraffic.qld.gov.au/v1/webcams/94","description":"Nerang - Pacific Mwy M1 - Exit 71 - North","direction":"North","district":"South Coast","locality":"Nerang","postcode":"4211","image_url":"https://webcams.qldtraffic.qld.gov.au/Gold_Coast/MRSCHD-306.jpg"}},{"type":"Feature","geometry":{"type":"Point","coordinates":[153.2061005,-27.7081604]},"properties":{"id":95,"url":"https://api.qldtraffic.qld.gov.au/v1/webcams/95","description":"Beenleigh - Pacific Mwy M1 - Exit 34 - North","direction":"North","district":"South Coast","locality":"Beenleigh","postcode":"4207","image_url":"https://webcams.qldtraffic.qld.gov.au/Gold_Coast/MRSCHD-305.jpg"}},{"type":"Feature","geometry":{"type":"Point","coordinates":[153.4017029,-28.10000038]},"properties":{"id":96,"url":"https://api.qldtraffic.qld.gov.au/v1/webcams/96","description":"Varsity Lakes - Pacific Mwy M1 - Exit 84 - North","direction":"NorthWest","district":"South Coast","locality":"Varsity Lakes","postcode":"4227","image_url":"https://webcams.qldtraffic.qld.gov.au/Gold_Coast/MRSCHD-304.jpg"}},{"type":"Feature","geometry":{"type":"Point","coordinates":[153.1188049,-27.63854027]},"properties":{"id":97,"url":"https://api.qldtraffic.qld.gov.au/v1/webcams/97","description":"Logan Central - Kingston Rd & Paradise Rd - South","direction":"South","district":"South Coast","locality":"Logan Central","postcode":"4114","image_url":"https://webcams.qldtraffic.qld.gov.au/Gold_Coast/MRSCHD-303.jpg"}},{"type":"Feature","geometry":{"type":"Point","coordinates":[153.3141022,-27.88528061]},"properties":{"id":98,"url":"https://api.qldtraffic.qld.gov.au/v1/webcams/98","description":"Oxenford -  Hope Island Rd & Old Pacific Hwy - South","direction":"South","district":"South Coast","locality":"Oxenford","postcode":"4210","image_url":"https://webcams.qldtraffic.qld.gov.au/Gold_Coast/MRSCHD-302.jpg"}},{"type":"Feature","geometry":{"type":"Point","coordinates":[153.1446991,-27.64373016]},"properties":{"id":99,"url":"https://api.qldtraffic.qld.gov.au/v1/webcams/99","description":"Daisy Hill - Pacific Mwy M1 - Exit 24 - North","direction":"North","district":"South Coast","locality":"Daisy Hill","postcode":"4127","image_url":"https://webcams.qldtraffic.qld.gov.au/Gold_Coast/MRSCHD-300.jpg"}},{"type":"Feature","geometry":{"type":"Point","coordinates":[153.3148956,-27.88521957]},"properties":{"id":100,"url":"https://api.qldtraffic.qld.gov.au/v1/webcams/100","description":"Oxenford - Pacific Mwy M1 - Exit 57 - South","direction":"South","district":"South Coast","locality":"Oxenford","postcode":"4210","image_url":"https://webcams.qldtraffic.qld.gov.au/Gold_Coast/MRSCHD-299.jpg"}},{"type":"Feature","geometry":{"type":"Point","coordinates":[153.119706,-27.60672]},"properties":{"id":101,"url":"https://api.qldtraffic.qld.gov.au/v1/webcams/101","description":"Rochedale - Pacific Mwy M1 - Exit 19 â€“ South","direction":"South","district":"South Coast","locality":"Rochedale","postcode":"4123","image_url":"https://webcams.qldtraffic.qld.gov.au/Gold_Coast/MRSCHD-298.jpg"}},{"type":"Feature","geometry":{"type":"Point","coordinates":[153.3085022,-27.8579998]},"properties":{"id":102,"url":"https://api.qldtraffic.qld.gov.au/v1/webcams/102","description":"Coomera - Pacific Mwy M1 - Exit 54 - South","direction":"South","district":"South Coast","locality":"Coomera","postcode":"4209","image_url":"https://webcams.qldtraffic.qld.gov.au/Gold_Coast/MRSCHD-297.jpg"}},{"type":"Feature","geometry":{"type":"Point","coordinates":[153.4098053,-27.97117043]},"properties":{"id":103,"url":"https://api.qldtraffic.qld.gov.au/v1/webcams/103","description":"Southport - Ferry Rd & Queen St - South","direction":"South","district":"South Coast","locality":"Southport","postcode":"4215","image_url":"https://webcams.qldtraffic.qld.gov.au/Gold_Coast/MRSCHD-296.jpg"}},{"type":"Feature","geometry":{"type":"Point","coordinates":[153.0386963,-27.69919968]},"properties":{"id":104,"url":"https://api.qldtraffic.qld.gov.au/v1/webcams/104","description":"Park Ridge - Mt Lindesay Hwy & Park Ridge Rd - South","direction":"North","district":"South Coast","locality":"Park Ridge","postcode":"4125","image_url":"https://webcams.qldtraffic.qld.gov.au/Gold_Coast/MRSCHD-295.jpg"}},{"type":"Feature","geometry":{"type":"Point","coordinates":[153.1374969,-27.63788033]},"properties":{"id":105,"url":"https://api.qldtraffic.qld.gov.au/v1/webcams/105","description":"Slacks Creek - Pacific Mwy M1 & Paradise Rd - Exit 23 - North","direction":"North","district":"South Coast","locality":"Slacks Creek","postcode":"4127","image_url":"https://webcams.qldtraffic.qld.gov.au/Gold_Coast/MRSCHD-294.jpg"}},{"type":"Feature","geometry":{"type":"Point","coordinates":[153.3177948,-27.9081707]},"properties":{"id":106,"url":"https://api.qldtraffic.qld.gov.au/v1/webcams/106","description":"Helensvale - Pacific Mwy M1 - Exit 60 - North","direction":"North","district":"South Coast","locality":"Helensvale","postcode":"4212","image_url":"https://webcams.qldtraffic.qld.gov.au/Gold_Coast/MRSCHD-293.jpg"}},{"type":"Feature","geometry":{"type":"Point","coordinates":[153.4501953,-28.08732986]},"properties":{"id":107,"url":"https://api.qldtraffic.qld.gov.au/v1/webcams/107","description":"Burleigh Heads - Gold Coast Hwy & Reedy Creek Rd - South","direction":"South","district":"South Coast","locality":"Burleigh Heads","postcode":"4220","image_url":"https://webcams.qldtraffic.qld.gov.au/Gold_Coast/MRSCHD-292.jpg"}},{"type":"Feature","geometry":{"type":"Point","coordinates":[153.3761444,-27.9647007]},"properties":{"id":109,"url":"https://api.qldtraffic.qld.gov.au/v1/webcams/109","description":"Southport - Smith St & Olsen Ave - East","direction":"East","district":"South Coast","locality":"Southport","postcode":"4215","image_url":"https://webcams.qldtraffic.qld.gov.au/Gold_Coast/MRSCHD-395.jpg"}},{"type":"Feature","geometry":{"type":"Point","coordinates":[153.0502014,-26.68600082]},"properties":{"id":110,"url":"https://api.qldtraffic.qld.gov.au/v1/webcams/110","description":"Buderim - Burnett St Pedestrian Crossing - West","direction":"West","district":"North Coast","locality":"Buderim","postcode":"4556","image_url":"https://webcams.qldtraffic.qld.gov.au/Sunshine_Coast/MRNCHD-507.jpg"}},{"type":"Feature","geometry":{"type":"Point","coordinates":[153.0894012,-26.65014076]},"properties":{"id":111,"url":"https://api.qldtraffic.qld.gov.au/v1/webcams/111","description":"Maroochydore - Duport Ave & Beach Rd - North","direction":"North","district":"North Coast","locality":"Maroochydore","postcode":"4558","image_url":"https://webcams.qldtraffic.qld.gov.au/Sunshine_Coast/MRNCHD-439.jpg"}},{"type":"Feature","geometry":{"type":"Point","coordinates":[153.3793945,-28.08359909]},"properties":{"id":112,"url":"https://api.qldtraffic.qld.gov.au/v1/webcams/112","description":"Robina - Robina Pkwy & Pacific Mwy M1 - Exit 82 - North","direction":"North","district":"South Coast","locality":"Robina","postcode":"4226","image_url":"https://webcams.qldtraffic.qld.gov.au/Gold_Coast/MRSCHD-494.jpg"}},{"type":"Feature","geometry":{"type":"Point","coordinates":[153.0962067,-26.67556]},"properties":{"id":113,"url":"https://api.qldtraffic.qld.gov.au/v1/webcams/113","description":"Alexandra Headland - Mooloolaba Rd & Sugar Rd - NorthEast","direction":"NorthEast","district":"North Coast","locality":"Alexandra Headland","postcode":"4572","image_url":"https://webcams.qldtraffic.qld.gov.au/Sunshine_Coast/MRNCHD-437.jpg"}},{"type":"Feature","geometry":{"type":"Point","coordinates":[153.0294952,-27.19668961]},"properties":{"id":114,"url":"https://api.qldtraffic.qld.gov.au/v1/webcams/114","description":"Deception Bay - Deception Bay Rd & Bay Rd - NorthWest","direction":"NorthWest","district":"North Coast","locality":"Deception Bay","postcode":"4508","image_url":"https://webcams.qldtraffic.qld.gov.au/Sunshine_Coast/MRNCHD-436.jpg"}},{"type":"Feature","geometry":{"type":"Point","coordinates":[152.9608002,-27.33610916]},"properties":{"id":115,"url":"https://api.qldtraffic.qld.gov.au/v1/webcams/115","description":"Albany Creek - Southpine Rd & Eatons Crossing Rd - South","direction":"South","district":"North Coast","locality":"Albany Creek","postcode":"4035","image_url":"https://webcams.qldtraffic.qld.gov.au/Sunshine_Coast/MRNCHD-435.jpg"}},{"type":"Feature","geometry":{"type":"Point","coordinates":[152.9792938,-27.26922035]},"properties":{"id":116,"url":"https://api.qldtraffic.qld.gov.au/v1/webcams/116","description":"Petrie - Anzac Av & Dayboro Rd & Gympie Rd Roundabout - SouthWest","direction":"SouthWest","district":"North Coast","locality":"Petrie","postcode":"4502","image_url":"https://webcams.qldtraffic.qld.gov.au/Sunshine_Coast/MRNCHD-433.jpg"}},{"type":"Feature","geometry":{"type":"Point","coordinates":[153.0845947,-27.22615051]},"properties":{"id":117,"url":"https://api.qldtraffic.qld.gov.au/v1/webcams/117","description":"Kippa-Ring - Anzac Av & Elizabeth Av & Boardman Rd - West","direction":"West","district":"North Coast","locality":"Redcliffe","postcode":"4020","image_url":"https://webcams.qldtraffic.qld.gov.au/Sunshine_Coast/MRNCHD-432.jpg"}},{"type":"Feature","geometry":{"type":"Point","coordinates":[153.0919952,-26.53126907]},"properties":{"id":118,"url":"https://api.qldtraffic.qld.gov.au/v1/webcams/118","description":"Coolum Beach - David Low Way & Coolum Pedestrian Crossing - South","direction":"South","district":"North Coast","locality":"Coolum Beach","postcode":"4573","image_url":"https://webcams.qldtraffic.qld.gov.au/Sunshine_Coast/MRNCHD-431.jpg"}},{"type":"Feature","geometry":{"type":"Point","coordinates":[153.121994,-26.76693916]},"properties":{"id":119,"url":"https://api.qldtraffic.qld.gov.au/v1/webcams/119","description":"Currimundi - Nicklin Way & Gannawarra St - South","direction":"South","district":"North Coast","locality":"Currimundi","postcode":"4551","image_url":"https://webcams.qldtraffic.qld.gov.au/Sunshine_Coast/MRNCHD-430.jpg"}},{"type":"Feature","geometry":{"type":"Point","coordinates":[152.9815063,-27.25513077]},"properties":{"id":120,"url":"https://api.qldtraffic.qld.gov.au/v1/webcams/120","description":"Petrie - Anzac Av & Dohles Rock Rd & Narangba Rd - NorthEast","direction":"NorthEast","district":"North Coast","locality":"Petrie","postcode":"4502","image_url":"https://webcams.qldtraffic.qld.gov.au/Sunshine_Coast/MRNCHD-429.jpg"}},{"type":"Feature","geometry":{"type":"Point","coordinates":[152.9687958,-26.61648941]},"properties":{"id":121,"url":"https://api.qldtraffic.qld.gov.au/v1/webcams/121","description":"Nambour - Nambour Coronation Ave & Bli Bli Rd Intersection - South","direction":"South","district":"North Coast","locality":"Nambour","postcode":"4560","image_url":"https://webcams.qldtraffic.qld.gov.au/Sunshine_Coast/MRNCHD-428.jpg"}},{"type":"Feature","geometry":{"type":"Point","coordinates":[153.0827942,-26.65209007]},"properties":{"id":122,"url":"https://api.qldtraffic.qld.gov.au/v1/webcams/122","description":"Maroochydore - Maroochydore Rd & Broadmeadows Rd - West","direction":"West","district":"North Coast","locality":"Maroochydore","postcode":"4558","image_url":"https://webcams.qldtraffic.qld.gov.au/Sunshine_Coast/MRNCHD-427.jpg"}},{"type":"Feature","geometry":{"type":"Point","coordinates":[152.9517059,-27.08499908]},"properties":{"id":123,"url":"https://api.qldtraffic.qld.gov.au/v1/webcams/123","description":"Caboolture - Morayfield Rd & King St Intersection - South","direction":"East","district":"North Coast","locality":"Caboolture","postcode":"4510","image_url":"https://webcams.qldtraffic.qld.gov.au/Sunshine_Coast/MRNCHD-426.jpg"}},{"type":"Feature","geometry":{"type":"Point","coordinates":[152.9514008,-27.11284065]},"properties":{"id":124,"url":"https://api.qldtraffic.qld.gov.au/v1/webcams/124","description":"Morayfield - Morayfield Rd & Walkers Rd - North","direction":"North","district":"North Coast","locality":"Morayfield","postcode":"4506","image_url":"https://webcams.qldtraffic.qld.gov.au/Sunshine_Coast/MRNCHD-425.jpg"}},{"type":"Feature","geometry":{"type":"Point","coordinates":[152.9884033,-27.30158997]},"properties":{"id":125,"url":"https://api.qldtraffic.qld.gov.au/v1/webcams/125","description":"Strathpine - Gympie Rd & Samsonvale Rd & Bells Pocket Rd - South","direction":"South","district":"North Coast","locality":"Strathpine","postcode":"4500","image_url":"https://webcams.qldtraffic.qld.gov.au/Sunshine_Coast/MRNCHD-424.jpg"}},{"type":"Feature","geometry":{"type":"Point","coordinates":[153.0173035,-27.24613953]},"properties":{"id":126,"url":"https://api.qldtraffic.qld.gov.au/v1/webcams/126","description":"North Lakes - Anzac Ave & Bruce Hwy - East","direction":"East","district":"North Coast","locality":"North Lakes","postcode":"4509","image_url":"https://webcams.qldtraffic.qld.gov.au/Sunshine_Coast/MRNCHD-423.jpg"}},{"type":"Feature","geometry":{"type":"Point","coordinates":[152.9472046,-27.52429962]},"properties":{"id":127,"url":"https://api.qldtraffic.qld.gov.au/v1/webcams/127","description":"Fig Tree Pocket - Centenary Hwy Bridge - Brisbane River - South","direction":"South","district":"Metropolitan","locality":"Fig Tree Pocket","postcode":"4069","image_url":"https://webcams.qldtraffic.qld.gov.au/Metropolitan/MRMETRO-1226.jpg"}},{"type":"Feature","geometry":{"type":"Point","coordinates":[152.9850006,-27.38899994]},"properties":{"id":128,"url":"https://api.qldtraffic.qld.gov.au/v1/webcams/128","description":"Everton Park - Old Northern Rd & Rogers Pde - North","direction":"North","district":"Metropolitan","locality":"Everton Park","postcode":"4053","image_url":"https://webcams.qldtraffic.qld.gov.au/Metropolitan/MRMETRO-1225.jpg"}},{"type":"Feature","geometry":{"type":"Point","coordinates":[152.9391022,-27.50729942]},"properties":{"id":129,"url":"https://api.qldtraffic.qld.gov.au/v1/webcams/129","description":"Kenmore - Moggill Rd & Kenmore Rd - East","direction":"East","district":"Metropolitan","locality":"Kenmore","postcode":"4069","image_url":"https://webcams.qldtraffic.qld.gov.au/Metropolitan/MRMETRO-1224.jpg"}},{"type":"Feature","geometry":{"type":"Point","coordinates":[153.0628052,-27.37669945]},"properties":{"id":130,"url":"https://api.qldtraffic.qld.gov.au/v1/webcams/130","description":"Northgate - Sandgate Rd & Toombul Rd - North","direction":"North","district":"Metropolitan","locality":"Northgate","postcode":"4013","image_url":"https://webcams.qldtraffic.qld.gov.au/Metropolitan/MRMETRO-1221.jpg"}},{"type":"Feature","geometry":{"type":"Point","coordinates":[153.0661926,-27.56119919]},"properties":{"id":131,"url":"https://api.qldtraffic.qld.gov.au/v1/webcams/131","description":"Macgregor - Mains Rd  & Kessels Rd - North","direction":"North","district":"Metropolitan","locality":"Macgregor","postcode":"4109","image_url":"https://webcams.qldtraffic.qld.gov.au/Metropolitan/MRMETRO-1220.jpg"}},{"type":"Feature","geometry":{"type":"Point","coordinates":[153.0852966,-27.43504906]},"properties":{"id":132,"url":"https://api.qldtraffic.qld.gov.au/v1/webcams/132","description":"Whinstanes - Gateway Mwy & Kingsford Smith Drv - North","direction":"North","district":"Metropolitan","locality":"Eagle Farm","postcode":"4009","image_url":"https://webcams.qldtraffic.qld.gov.au/Metropolitan/MRMETRO-1219.jpg"}},{"type":"Feature","geometry":{"type":"Point","coordinates":[152.822998,-27.58799934]},"properties":{"id":133,"url":"https://api.qldtraffic.qld.gov.au/v1/webcams/133","description":"Bundamba - Warrego Hwy near Hoepner Rd - West","direction":"West","district":"Metropolitan","locality":"Bundamba","postcode":"4304","image_url":"https://webcams.qldtraffic.qld.gov.au/Metropolitan/MRMETRO-1218.jpg"}},{"type":"Feature","geometry":{"type":"Point","coordinates":[152.990799,-27.40719986]},"properties":{"id":134,"url":"https://api.qldtraffic.qld.gov.au/v1/webcams/134","description":"Everton Park - South Pine Rd & Stafford Rd - North","direction":"North","district":"Metropolitan","locality":"Everton Park","postcode":"4053","image_url":"https://webcams.qldtraffic.qld.gov.au/Metropolitan/MRMETRO-1217.jpg"}},{"type":"Feature","geometry":{"type":"Point","coordinates":[153.0635986,-27.28280067]},"properties":{"id":135,"url":"https://api.qldtraffic.qld.gov.au/v1/webcams/135","description":"Brighton - Houghton Hwy Bridge - NorthEast","direction":"NorthEast","district":"Metropolitan","locality":"Brighton","postcode":"4017","image_url":"https://webcams.qldtraffic.qld.gov.au/Metropolitan/MRMETRO-1216.jpg"}},{"type":"Feature","geometry":{"type":"Point","coordinates":[152.9459991,-27.57579994]},"properties":{"id":136,"url":"https://api.qldtraffic.qld.gov.au/v1/webcams/136","description":"Darra - Centenary Mwy at Sumner Rd Off-Ramp - South","direction":"South","district":"Metropolitan","locality":"Darra","postcode":"4076","image_url":"https://webcams.qldtraffic.qld.gov.au/Metropolitan/MRMETRO-1215.jpg"}},{"type":"Feature","geometry":{"type":"Point","coordinates":[153.0381012,-27.49511909]},"properties":{"id":137,"url":"https://api.qldtraffic.qld.gov.au/v1/webcams/137","description":"Woolloongabba - Pacific Mwy & Arrow St - NorthWest","direction":"NorthWest","district":"Metropolitan","locality":"Woolloongabba","postcode":"4102","image_url":"https://webcams.qldtraffic.qld.gov.au/Metropolitan/MRMETRO-1214.jpg"}},{"type":"Feature","geometry":{"type":"Point","coordinates":[153.0229034,-27.37277985]},"properties":{"id":138,"url":"https://api.qldtraffic.qld.gov.au/v1/webcams/138","description":"Chermside - Gympie Rd & Webster Rd - SouthEast","direction":"SouthEast","district":"Metropolitan","locality":"Chermside","postcode":"4032","image_url":"https://webcams.qldtraffic.qld.gov.au/Metropolitan/MRMETRO-1213.jpg"}},{"type":"Feature","geometry":{"type":"Point","coordinates":[153.3520966,-28.03340912]},"properties":{"id":139,"url":"https://api.qldtraffic.qld.gov.au/v1/webcams/139","description":"Worongary - Elysium Rd & Pacific Mwy - Exit 75 - North","direction":"North","district":"South Coast","locality":"Worongary","postcode":"4213","image_url":"https://webcams.qldtraffic.qld.gov.au/Gold_Coast/MRSCHD-495.jpg"}},{"type":"Feature","geometry":{"type":"Point","coordinates":[150.5072021,-23.37231064]},"properties":{"id":140,"url":"https://api.qldtraffic.qld.gov.au/v1/webcams/140","description":"Rockhampton Neville Hewitt Bridge","direction":"NorthEast","district":"Fitzroy","locality":"Rockhampton City","postcode":"4700","image_url":"https://webcams.qldtraffic.qld.gov.au/Fitzroy/MRCENTRAL-319.jpg"}},{"type":"Feature","geometry":{"type":"Point","coordinates":[146.7489014,-19.26192093]},"properties":{"id":141,"url":"https://api.qldtraffic.qld.gov.au/v1/webcams/141","description":"Mount Saint John - Blakeys Crossing on Ingham Rd - West","direction":"West","district":"Northern","locality":"Townsville City","postcode":"4810","image_url":"https://webcams.qldtraffic.qld.gov.au/Northern/MRNORTHERN-426.jpg"}},{"type":"Feature","geometry":{"type":"Point","coordinates":[146.7586975,-19.28023911]},"properties":{"id":142,"url":"https://api.qldtraffic.qld.gov.au/v1/webcams/142","description":"Garbutt - Duckworth St & Dalrymple Rd - North","direction":"North","district":"Northern","locality":"Garbutt","postcode":"4814","image_url":"https://webcams.qldtraffic.qld.gov.au/Northern/MRNORTHERN-432.jpg"}},{"type":"Feature","geometry":{"type":"Point","coordinates":[146.7588959,-19.28026009]},"properties":{"id":143,"url":"https://api.qldtraffic.qld.gov.au/v1/webcams/143","description":"Garbutt - Duckworth St & Dalrymple Rd - West","direction":"West","district":"Northern","locality":"Garbutt","postcode":"4814","image_url":"https://webcams.qldtraffic.qld.gov.au/Northern/MRNORTHERN-431.jpg"}},{"type":"Feature","geometry":{"type":"Point","coordinates":[153.1936035,-27.71501923]},"properties":{"id":144,"url":"https://api.qldtraffic.qld.gov.au/v1/webcams/144","description":"Beenleigh - George St & Boundary St - North","direction":"North","district":"South Coast","locality":"Beenleigh","postcode":"4207","image_url":"https://webcams.qldtraffic.qld.gov.au/Gold_Coast/MRSCHD-808.jpg"}},{"type":"Feature","geometry":{"type":"Point","coordinates":[152.9940033,-26.91937065]},"properties":{"id":145,"url":"https://api.qldtraffic.qld.gov.au/v1/webcams/145","description":"Glass House Mountains - Bruce Hwy & Johnston Rd - South","direction":"North","district":"North Coast","locality":"Glass House Mountains","postcode":"4518","image_url":"https://webcams.qldtraffic.qld.gov.au/Sunshine_Coast/MRNCHD-850.jpg"}},{"type":"Feature","geometry":{"type":"Point","coordinates":[152.9869995,-26.95775032]},"properties":{"id":146,"url":"https://api.qldtraffic.qld.gov.au/v1/webcams/146","description":"Beerburrum - Bruce Hwy & Red Rd - South","direction":"North","district":"North Coast","locality":"Beerburrum","postcode":"4517","image_url":"https://webcams.qldtraffic.qld.gov.au/Sunshine_Coast/MRNCHD-849.jpg"}},{"type":"Feature","geometry":{"type":"Point","coordinates":[152.9759979,-27.05275917]},"properties":{"id":147,"url":"https://api.qldtraffic.qld.gov.au/v1/webcams/147","description":"Caboolture - Bruce Hwy near King John Ck - South","direction":"North","district":"North Coast","locality":"Caboolture","postcode":"4510","image_url":"https://webcams.qldtraffic.qld.gov.au/Sunshine_Coast/MRNCHD-848.jpg"}},{"type":"Feature","geometry":{"type":"Point","coordinates":[153.0278931,-26.84992981]},"properties":{"id":148,"url":"https://api.qldtraffic.qld.gov.au/v1/webcams/148","description":"Bells Creek - Bruce Hwy & Bells Ck Rd intersection - South","direction":"North","district":"North Coast","locality":"Bells Creek","postcode":"4551","image_url":"https://webcams.qldtraffic.qld.gov.au/Sunshine_Coast/MRNCHD-851.jpg"}},{"type":"Feature","geometry":{"type":"Point","coordinates":[153.0077209,-27.55681992]},"properties":{"id":149,"url":"https://api.qldtraffic.qld.gov.au/v1/webcams/149","description":"Archerfield - Granard Rd & Ipswich Mwy - South","direction":"SouthWest","district":"Metropolitan","locality":"Archerfield","postcode":"4108","image_url":"https://webcams.qldtraffic.qld.gov.au/Metropolitan/MRMETRO-1223.jpg"}},{"type":"Feature","geometry":{"type":"Point","coordinates":[150.5001068,-23.41020012]},"properties":{"id":150,"url":"https://api.qldtraffic.qld.gov.au/v1/webcams/150","description":"Rockhampton Yeppen Lagoon Crossing - SouthWest","direction":"SouthWest","district":"Fitzroy","locality":"Rockhampton City","postcode":"4700","image_url":"https://webcams.qldtraffic.qld.gov.au/Fitzroy/MRCENTRAL-428.jpg"}},{"type":"Feature","geometry":{"type":"Point","coordinates":[150.5121002,-23.3763504]},"properties":{"id":151,"url":"https://api.qldtraffic.qld.gov.au/v1/webcams/151","description":"Rockhampton Fitzroy River Bridge - NorthEast","direction":"NorthEast","district":"Fitzroy","locality":"Rockhampton City","postcode":"4700","image_url":"https://webcams.qldtraffic.qld.gov.au/Fitzroy/MRCENTRAL-377.jpg"}},{"type":"Feature","geometry":{"type":"Point","coordinates":[145.7436981,-16.9769001]},"properties":{"id":153,"url":"https://api.qldtraffic.qld.gov.au/v1/webcams/153","description":"White Rock - Bruce Hwy & Murgatroyd Rd Interchange - South","direction":"South","district":"Far North","locality":"White Rock","postcode":"4868","image_url":"https://webcams.qldtraffic.qld.gov.au/Far_North/MRPENINSULA-616.jpg"}},{"type":"Feature","geometry":{"type":"Point","coordinates":[145.7516022,-16.95256996]},"properties":{"id":154,"url":"https://api.qldtraffic.qld.gov.au/v1/webcams/154","description":"Woree - Bruce Hwy & Kate St - East","direction":"East","district":"Far North","locality":"Woree","postcode":"4868","image_url":"https://webcams.qldtraffic.qld.gov.au/Far_North/MRPENINSULA-614.jpg"}},{"type":"Feature","geometry":{"type":"Point","coordinates":[146.7288971,-19.31699944]},"properties":{"id":155,"url":"https://api.qldtraffic.qld.gov.au/v1/webcams/155","description":"Thuringowa - Ross River Rd & Thuringowa Dr - West","direction":"West","district":"Northern","locality":"Thuringowa Central","postcode":"4817","image_url":"https://webcams.qldtraffic.qld.gov.au/Northern/104137_Northern-Ross-River-Rd-and-Thuringowa-Dr.jpg"}},{"type":"Feature","geometry":{"type":"Point","coordinates":[146.7613068,-19.29809952]},"properties":{"id":156,"url":"https://api.qldtraffic.qld.gov.au/v1/webcams/156","description":"Cranbrook - Ross River Rd & Nathan St - East","direction":"East","district":"Northern","locality":"Cranbrook","postcode":"4814","image_url":"https://webcams.qldtraffic.qld.gov.au/Northern/104138_Northern-Ross-River-Rd-and-Nathan-St.jpg"}},{"type":"Feature","geometry":{"type":"Point","coordinates":[146.8041992,-19.27219009]},"properties":{"id":157,"url":"https://api.qldtraffic.qld.gov.au/v1/webcams/157","description":"West End - Charters Towers Rd & Boundary St - South","direction":"South","district":"Northern","locality":"West End","postcode":"4810","image_url":"https://webcams.qldtraffic.qld.gov.au/Northern/104139_Northern-Charters-Towers-Rd-and-Boundary-St.jpg"}},{"type":"Feature","geometry":{"type":"Point","coordinates":[153.3529358,-27.96171761]},"properties":{"id":158,"url":"https://api.qldtraffic.qld.gov.au/v1/webcams/158","description":"Molendinar - Smith St & Precision Dr - East","direction":"East","district":"South Coast","locality":"Molendinar","postcode":"4214","image_url":"https://webcams.qldtraffic.qld.gov.au/Gold_Coast/104672_Smith-Street-Mway-East.jpg"}},{"type":"Feature","geometry":{"type":"Point","coordinates":[153.3541718,-27.96190834]},"properties":{"id":159,"url":"https://api.qldtraffic.qld.gov.au/v1/webcams/159","description":"Molendinar - Smith St & Precision Dr - West","direction":"West","district":"South Coast","locality":"Molendinar","postcode":"4214","image_url":"https://webcams.qldtraffic.qld.gov.au/Gold_Coast/104673_South-Coast_Smith-Street-Mway.jpg"}},{"type":"Feature","geometry":{"type":"Point","coordinates":[153.0588401,-27.337671]},"properties":{"id":160,"url":"https://api.qldtraffic.qld.gov.au/v1/webcams/160","description":"Boondall - Gateway Mwy over Sandgate Rd - East","direction":"East","district":"Metropolitan","locality":"Boondall - Brisbane City","postcode":"4034","image_url":"https://webcams.qldtraffic.qld.gov.au/Metropolitan/MRMETRO-1222.jpg"}},{"type":"Feature","geometry":{"type":"Point","coordinates":[153.050741,-27.326855]},"properties":{"id":161,"url":"https://api.qldtraffic.qld.gov.au/v1/webcams/161","description":"Deagon - Gateway Mwy at Depot Rd On-Ramp - North\n","direction":"North","district":"Metropolitan","locality":"Sandgate - Brisbane City","postcode":"4017","image_url":"https://webcams.qldtraffic.qld.gov.au/Metropolitan/105219_Metropolitan-Deagon-Gateway-Mwy-Depot-Rd-Onramp.jpg"}},{"type":"Feature","geometry":{"type":"Point","coordinates":[153.138617,-27.437183]},"properties":{"id":162,"url":"https://api.qldtraffic.qld.gov.au/v1/webcams/162","description":"Lytton - Port Drive South of Tanker Street - North","direction":"North","district":"Metropolitan","locality":"Lytton - Brisbane City","postcode":"4178","image_url":"https://webcams.qldtraffic.qld.gov.au/Metropolitan/105155_Metropolitan-Lytton-Port-Dr-North.jpg"}},{"type":"Feature","geometry":{"type":"Point","coordinates":[153.138617,-27.437183]},"properties":{"id":163,"url":"https://api.qldtraffic.qld.gov.au/v1/webcams/163","description":"Lytton - Port of Brisbane Mwy & Luke St - North","direction":"North","district":"Metropolitan","locality":"Lytton - Brisbane City","postcode":"4178","image_url":"https://webcams.qldtraffic.qld.gov.au/Metropolitan/105157_Metropolitan-Lytton-Port-Brisbane-Mwy-North.jpg"}},{"type":"Feature","geometry":{"type":"Point","coordinates":[153.138617,-27.437183]},"properties":{"id":164,"url":"https://api.qldtraffic.qld.gov.au/v1/webcams/164","description":"Lytton - Port of Brisbane Mwy & Luke St - South\n","direction":"South","district":"Metropolitan","locality":"Lytton - Brisbane City","postcode":"4178","image_url":"https://webcams.qldtraffic.qld.gov.au/Metropolitan/105156_Metropolitan-Lytton-Port-Brisbane-Mwy-South.jpg"}},{"type":"Feature","geometry":{"type":"Point","coordinates":[152.9397,-27.55976]},"properties":{"id":165,"url":"https://api.qldtraffic.qld.gov.au/v1/webcams/165","description":"Sumner - Centenary Mwy - South","direction":"South","district":"Metropolitan","locality":"Sumner - Brisbane City","postcode":"4074","image_url":"https://webcams.qldtraffic.qld.gov.au//Metropolitan/MRMETRO-1215.jpg"}},{"type":"Feature","geometry":{"type":"Point","coordinates":[152.9482,-27.0988]},"properties":{"id":166,"url":"https://api.qldtraffic.qld.gov.au/v1/webcams/166","description":"Caboolture South - Morayfield Rd & Torrens Rd - North","direction":"North","district":"North Coast","locality":"Caboolture South - Moreton Bay Regional","postcode":"4510","image_url":"https://webcams.qldtraffic.qld.gov.au/Sunshine_Coast/Caboolture_Sth-MorayfieldRd-TorrensRd_Nth.jpg"}},{"type":"Feature","geometry":{"type":"Point","coordinates":[153.0698,-26.7132]},"properties":{"id":167,"url":"https://api.qldtraffic.qld.gov.au/v1/webcams/167","description":"Buderim - Sunshine Mwy & Dixon Rd Overpass - East","direction":"East","district":"North Coast","locality":"Buderim","postcode":"4556","image_url":"https://webcams.qldtraffic.qld.gov.au/Sunshine_Coast/buderim_sunshine_dixon.jpg"}}],"published":"2017-08-29T11:50:24.3518334+10:00","rights":{"owner":"As per the respective provided_by details contained in the feed: Department of Transport and Main Roads, Transport for NSW, or the respective Local Government Authority.","disclaimer":"The State of Queensland makes no statements, representations or warranties about the accuracy, currency, reliability or completeness of the information contained in this feed.","copyright":"Copyright in material within this feed is owned by the State of Queensland or other entities which provide material for the website by arrangement. Please consult the respective provided_by_url for each data owner or the QLDTraffic website for further information https://qldtraffic.qld.gov.au/More/Data.html."}}